
[

    {
        "_id": "6231f51e3254f6497e0e1d25",
        "district_number": 1,
        "name": "Comilla",
        "bn_name": "কুমিল্লা",
        "lat": 23.4682747,
        "lon": 91.1788135,
        "url": "www.comilla.gov.bd",
        "created": "2022-03-16T14:33:02.393Z",
        "__v": 0
    },
    {
        "_id": "6231f5433254f6497e0e1d27",
        "district_number": 2,
        "name": "Feni",
        "bn_name": "ফেনী",
        "lat": 23.023231,
        "lon": 91.3840844,
        "url": "www.feni.gov.bd",
        "created": "2022-03-16T14:33:39.026Z",
        "__v": 0
    },
    {
        "_id": "6231f5513254f6497e0e1d29",
        "district_number": 3,
        "name": "Brahmanbaria",
        "bn_name": "ব্রাহ্মণবাড়িয়া",
        "lat": 23.9570904,
        "lon": 91.1119286,
        "url": "www.brahmanbaria.gov.bd",
        "created": "2022-03-16T14:33:53.849Z",
        "__v": 0
    },
    {
        "_id": "6231f987f54eb9a85b334aec",
        "district_number": 4,
        "name": "Rangamati",
        "bn_name": "রাঙ্গামাটি",
        "lat": 22.65561018,
        "lon": 92.17541121,
        "url": "www.rangamati.gov.bd",
        "created": "2022-03-16T14:51:51.199Z",
        "__v": 0
    },
    {
        "_id": "6231f9aef54eb9a85b334aef",
        "district_number": 5,
        "name": "Noakhali",
        "bn_name": "নোয়াখালী",
        "lat": 22.869563,
        "lon": 91.099398,
        "url": "www.noakhali.gov.bd",
        "created": "2022-03-16T14:52:30.451Z",
        "__v": 0
    },
    {
        "_id": "6231f9b7f54eb9a85b334af1",
        "district_number": 6,
        "name": "Chandpur",
        "bn_name": "চাঁদপুর",
        "lat": 23.2332585,
        "lon": 90.6712912,
        "url": "www.chandpur.gov.bd",
        "created": "2022-03-16T14:52:39.381Z",
        "__v": 0
    },
    {
        "_id": "6231f9c2f54eb9a85b334af3",
        "district_number": 7,
        "name": "Lakshmipur",
        "bn_name": "লক্ষ্মীপুর",
        "lat": 22.942477,
        "lon": 90.841184,
        "url": "www.lakshmipur.gov.bd",
        "created": "2022-03-16T14:52:50.093Z",
        "__v": 0
    },
    {
        "_id": "6231f9caf54eb9a85b334af5",
        "district_number": 8,
        "name": "Chattogram",
        "bn_name": "চট্টগ্রাম",
        "lat": 22.335109,
        "lon": 91.834073,
        "url": "www.chittagong.gov.bd",
        "created": "2022-03-16T14:52:58.222Z",
        "__v": 0
    },
    {
        "_id": "6231f9d3f54eb9a85b334af7",
        "district_number": 9,
        "name": "Coxsbazar",
        "bn_name": "কক্সবাজার",
        "lat": 21.44315751,
        "lon": 91.97381741,
        "url": "www.coxsbazar.gov.bd",
        "created": "2022-03-16T14:53:07.475Z",
        "__v": 0
    },
    {
        "_id": "6231f9daf54eb9a85b334af9",
        "district_number": 10,
        "name": "Khagrachhari",
        "bn_name": "খাগড়াছড়ি",
        "lat": 23.119285,
        "lon": 91.984663,
        "url": "www.khagrachhari.gov.bd",
        "created": "2022-03-16T14:53:14.665Z",
        "__v": 0
    },
    {
        "_id": "6231f9e4f54eb9a85b334afb",
        "district_number": 11,
        "name": "Bandarban",
        "bn_name": "বান্দরবান",
        "lat": 22.1953275,
        "lon": 92.2183773,
        "url": "www.bandarban.gov.bd",
        "created": "2022-03-16T14:53:24.208Z",
        "__v": 0
    },
    {
        "_id": "6231f9ecf54eb9a85b334afd",
        "district_number": 12,
        "name": "Sirajganj",
        "bn_name": "সিরাজগঞ্জ",
        "lat": 24.4533978,
        "lon": 89.7006815,
        "url": "www.sirajganj.gov.bd",
        "created": "2022-03-16T14:53:32.385Z",
        "__v": 0
    },
    {
        "_id": "6231f9f3f54eb9a85b334aff",
        "district_number": 13,
        "name": "Pabna",
        "bn_name": "পাবনা",
        "lat": 23.998524,
        "lon": 89.233645,
        "url": "www.pabna.gov.bd",
        "created": "2022-03-16T14:53:39.879Z",
        "__v": 0
    },
    {
        "_id": "6231f9faf54eb9a85b334b01",
        "district_number": 14,
        "name": "Bogura",
        "bn_name": "বগুড়া",
        "lat": 24.8465228,
        "lon": 89.377755,
        "url": "www.bogra.gov.bd",
        "created": "2022-03-16T14:53:46.388Z",
        "__v": 0
    },
    {
        "_id": "6231fa02f54eb9a85b334b03",
        "district_number": 15,
        "name": "Rajshahi",
        "bn_name": "রাজশাহী",
        "lat": 24.37230298,
        "lon": 88.56307623,
        "url": "www.rajshahi.gov.bd",
        "created": "2022-03-16T14:53:54.595Z",
        "__v": 0
    },
    {
        "_id": "6231fa12f54eb9a85b334b06",
        "district_number": 16,
        "name": "Natore",
        "bn_name": "নাটোর",
        "lat": 24.420556,
        "lon": 89.000282,
        "url": "www.natore.gov.bd",
        "created": "2022-03-16T14:54:10.616Z",
        "__v": 0
    },
    {
        "_id": "6231fa29f54eb9a85b334b08",
        "district_number": 17,
        "name": "Joypurhat",
        "bn_name": "জয়পুরহাট",
        "lat": 25.09636876,
        "lon": 89.0400428,
        "url": "www.joypurhat.gov.bd",
        "created": "2022-03-16T14:54:33.997Z",
        "__v": 0
    },
    {
        "_id": "6231fa31f54eb9a85b334b0a",
        "district_number": 18,
        "name": "Chapainawabganj",
        "bn_name": "চাঁপাইনবাবগঞ্জ",
        "lat": 24.5965034,
        "lon": 88.2775122,
        "url": "www.chapainawabganj.gov.bd",
        "created": "2022-03-16T14:54:41.081Z",
        "__v": 0
    },
    {
        "_id": "6231fa37f54eb9a85b334b0c",
        "district_number": 19,
        "name": "Naogaon",
        "bn_name": "নওগাঁ",
        "lat": 24.83256191,
        "lon": 88.92485205,
        "url": "www.naogaon.gov.bd",
        "created": "2022-03-16T14:54:47.801Z",
        "__v": 0
    },
    {
        "_id": "6231fa3ef54eb9a85b334b0e",
        "district_number": 20,
        "name": "Jashore",
        "bn_name": "যশোর",
        "lat": 23.16643,
        "lon": 89.2081126,
        "url": "www.jessore.gov.bd",
        "created": "2022-03-16T14:54:54.389Z",
        "__v": 0
    },
    {
        "_id": "6231fa5af54eb9a85b334b11",
        "district_number": 21,
        "name": "Satkhira",
        "bn_name": "সাতক্ষীরা",
        "lat": 0,
        "lon": 0,
        "url": "www.satkhira.gov.bd",
        "created": "2022-03-16T14:55:22.442Z",
        "__v": 0
    },
    {
        "_id": "6231fa81f54eb9a85b334b14",
        "district_number": 22,
        "name": "Meherpur",
        "bn_name": "মেহেরপুর",
        "lat": 23.762213,
        "lon": 88.631821,
        "url": "www.meherpur.gov.bd",
        "created": "2022-03-16T14:56:01.926Z",
        "__v": 0
    },
    {
        "_id": "6231fa97f54eb9a85b334b16",
        "district_number": 23,
        "name": "Narail",
        "bn_name": "নড়াইল",
        "lat": 23.172534,
        "lon": 89.512672,
        "url": "www.narail.gov.bd",
        "created": "2022-03-16T14:56:23.091Z",
        "__v": 0
    },
    {
        "_id": "6231fa9ff54eb9a85b334b18",
        "district_number": 24,
        "name": "Chuadanga",
        "bn_name": "চুয়াডাঙ্গা",
        "lat": 23.6401961,
        "lon": 88.841841,
        "url": "www.chuadanga.gov.bd",
        "created": "2022-03-16T14:56:31.013Z",
        "__v": 0
    },
    {
        "_id": "6231faa6f54eb9a85b334b1a",
        "district_number": 25,
        "name": "Kushtia",
        "bn_name": "কুষ্টিয়া",
        "lat": 23.901258,
        "lon": 89.120482,
        "url": "www.kushtia.gov.bd",
        "created": "2022-03-16T14:56:38.862Z",
        "__v": 0
    },
    {
        "_id": "6231faaef54eb9a85b334b1c",
        "district_number": 26,
        "name": "Magura",
        "bn_name": "মাগুরা",
        "lat": 23.487337,
        "lon": 89.419956,
        "url": "www.magura.gov.bd",
        "created": "2022-03-16T14:56:46.459Z",
        "__v": 0
    },
    {
        "_id": "6231fab5f54eb9a85b334b1e",
        "district_number": 27,
        "name": "Khulna",
        "bn_name": "খুলনা",
        "lat": 22.815774,
        "lon": 89.568679,
        "url": "www.khulna.gov.bd",
        "created": "2022-03-16T14:56:53.406Z",
        "__v": 0
    },
    {
        "_id": "6231fabdf54eb9a85b334b20",
        "district_number": 28,
        "name": "Bagerhat",
        "bn_name": "বাগেরহাট",
        "lat": 22.651568,
        "lon": 89.785938,
        "url": "www.bagerhat.gov.bd",
        "created": "2022-03-16T14:57:01.463Z",
        "__v": 0
    },
    {
        "_id": "6231faccf54eb9a85b334b22",
        "district_number": 29,
        "name": "Jhenaidah",
        "bn_name": "ঝিনাইদহ",
        "lat": 23.5448176,
        "lon": 89.1539213,
        "url": "www.jhenaidah.gov.bd",
        "created": "2022-03-16T14:57:16.791Z",
        "__v": 0
    },
    {
        "_id": "6231fad9f54eb9a85b334b24",
        "district_number": 30,
        "name": "Jhalakathi",
        "bn_name": "ঝালকাঠি",
        "lat": 0,
        "lon": 0,
        "url": "www.jhalakathi.gov.bd",
        "created": "2022-03-16T14:57:29.306Z",
        "__v": 0
    },
    {
        "_id": "6231fae0f54eb9a85b334b26",
        "district_number": 31,
        "name": "Patuakhali",
        "bn_name": "পটুয়াখালী",
        "lat": 22.3596316,
        "lon": 90.3298712,
        "url": "www.patuakhali.gov.bd",
        "created": "2022-03-16T14:57:36.403Z",
        "__v": 0
    },
    {
        "_id": "6231faeef54eb9a85b334b28",
        "district_number": 32,
        "name": "Pirojpur",
        "bn_name": "পিরোজপুর",
        "lat": 0,
        "lon": 0,
        "url": "www.pirojpur.gov.bd",
        "created": "2022-03-16T14:57:50.634Z",
        "__v": 0
    },
    {
        "_id": "6231fafdf54eb9a85b334b2a",
        "district_number": 33,
        "name": "Barisal",
        "bn_name": "বরিশাল",
        "lat": 0,
        "lon": 0,
        "url": "www.barisal.gov.bd",
        "created": "2022-03-16T14:58:05.348Z",
        "__v": 0
    },
    {
        "_id": "6231fb05f54eb9a85b334b2c",
        "district_number": 34,
        "name": "Bhola",
        "bn_name": "ভোলা",
        "lat": 22.685923,
        "lon": 90.648179,
        "url": "www.bhola.gov.bd",
        "created": "2022-03-16T14:58:13.825Z",
        "__v": 0
    },
    {
        "_id": "6231fb11f54eb9a85b334b2e",
        "district_number": 35,
        "name": "Barguna",
        "bn_name": "বরগুনা",
        "lat": 0,
        "lon": 0,
        "url": "www.barguna.gov.bd",
        "created": "2022-03-16T14:58:25.149Z",
        "__v": 0
    },
    {
        "_id": "6231fb18f54eb9a85b334b30",
        "district_number": 36,
        "name": "Sylhet",
        "bn_name": "সিলেট",
        "lat": 24.8897956,
        "lon": 91.8697894,
        "url": "www.sylhet.gov.bd",
        "created": "2022-03-16T14:58:32.707Z",
        "__v": 0
    },
    {
        "_id": "6231fb1ff54eb9a85b334b32",
        "district_number": 37,
        "name": "Moulvibazar",
        "bn_name": "মৌলভীবাজার",
        "lat": 24.482934,
        "lon": 91.777417,
        "url": "www.moulvibazar.gov.bd",
        "created": "2022-03-16T14:58:39.456Z",
        "__v": 0
    },
    {
        "_id": "6231fb29f54eb9a85b334b34",
        "district_number": 38,
        "name": "Habiganj",
        "bn_name": "হবিগঞ্জ",
        "lat": 24.374945,
        "lon": 91.41553,
        "url": "www.habiganj.gov.bd",
        "created": "2022-03-16T14:58:49.559Z",
        "__v": 0
    },
    {
        "_id": "6231fb32f54eb9a85b334b36",
        "district_number": 39,
        "name": "Sunamganj",
        "bn_name": "সুনামগঞ্জ",
        "lat": 25.0658042,
        "lon": 91.3950115,
        "url": "www.sunamganj.gov.bd",
        "created": "2022-03-16T14:58:58.459Z",
        "__v": 0
    },
    {
        "_id": "6231fb3bf54eb9a85b334b38",
        "district_number": 40,
        "name": "Narsingdi",
        "bn_name": "নরসিংদী",
        "lat": 23.932233,
        "lon": 90.71541,
        "url": "www.narsingdi.gov.bd",
        "created": "2022-03-16T14:59:07.300Z",
        "__v": 0
    },
    {
        "_id": "6231fb46f54eb9a85b334b3a",
        "district_number": 41,
        "name": "Gazipur",
        "bn_name": "গাজীপুর",
        "lat": 24.0022858,
        "lon": 90.4264283,
        "url": "www.gazipur.gov.bd",
        "created": "2022-03-16T14:59:18.097Z",
        "__v": 0
    },
    {
        "_id": "6231fb51f54eb9a85b334b3c",
        "district_number": 42,
        "name": "Shariatpur",
        "bn_name": "শরীয়তপুর",
        "lat": 0,
        "lon": 0,
        "url": "www.shariatpur.gov.bd",
        "created": "2022-03-16T14:59:29.134Z",
        "__v": 0
    },
    {
        "_id": "6231fb58f54eb9a85b334b3e",
        "district_number": 43,
        "name": "Narayanganj",
        "bn_name": "নারায়ণগঞ্জ",
        "lat": 23.63366,
        "lon": 90.496482,
        "url": "www.narayanganj.gov.bd",
        "created": "2022-03-16T14:59:36.155Z",
        "__v": 0
    },
    {
        "_id": "6231fb61f54eb9a85b334b40",
        "district_number": 44,
        "name": "Tangail",
        "bn_name": "টাঙ্গাইল",
        "lat": 24.26361358,
        "lon": 89.91794786,
        "url": "www.tangail.gov.bd",
        "created": "2022-03-16T14:59:45.783Z",
        "__v": 0
    },
    {
        "_id": "6231fb68f54eb9a85b334b42",
        "district_number": 45,
        "name": "Kishoreganj",
        "bn_name": "কিশোরগঞ্জ",
        "lat": 24.444937,
        "lon": 90.776575,
        "url": "www.kishoreganj.gov.bd",
        "created": "2022-03-16T14:59:52.649Z",
        "__v": 0
    },
    {
        "_id": "6231fb8cf54eb9a85b334b44",
        "district_number": 46,
        "name": "Manikganj",
        "bn_name": "মানিকগঞ্জ",
        "lat": 0,
        "lon": 0,
        "url": "www.manikganj.gov.bd",
        "created": "2022-03-16T15:00:28.766Z",
        "__v": 0
    },
    {
        "_id": "6231fb9af54eb9a85b334b46",
        "district_number": 47,
        "name": "Dhaka",
        "bn_name": "ঢাকা",
        "lat": 23.7115253,
        "lon": 90.4111451,
        "url": "www.dhaka.gov.bd",
        "created": "2022-03-16T15:00:42.593Z",
        "__v": 0
    },
    {
        "_id": "6231fba6f54eb9a85b334b48",
        "district_number": 48,
        "name": "Munshiganj",
        "bn_name": "মুন্সিগঞ্জ",
        "lat": 0,
        "lon": 0,
        "url": "www.munshiganj.gov.bd",
        "created": "2022-03-16T15:00:54.100Z",
        "__v": 0
    },
    {
        "_id": "6231fbaef54eb9a85b334b4a",
        "district_number": 49,
        "name": "Rajbari",
        "bn_name": "রাজবাড়ী",
        "lat": 23.7574305,
        "lon": 89.6444665,
        "url": "www.rajbari.gov.bd",
        "created": "2022-03-16T15:01:02.320Z",
        "__v": 0
    },
    {
        "_id": "6231fbb7f54eb9a85b334b4c",
        "district_number": 50,
        "name": "Madaripur",
        "bn_name": "মাদারীপুর",
        "lat": 23.164102,
        "lon": 90.1896805,
        "url": "www.madaripur.gov.bd",
        "created": "2022-03-16T15:01:11.280Z",
        "__v": 0
    },
    {
        "_id": "6231fbbef54eb9a85b334b4e",
        "district_number": 51,
        "name": "Gopalganj",
        "bn_name": "গোপালগঞ্জ",
        "lat": 23.0050857,
        "lon": 89.8266059,
        "url": "www.gopalganj.gov.bd",
        "created": "2022-03-16T15:01:18.948Z",
        "__v": 0
    },
    {
        "_id": "6231fbc5f54eb9a85b334b50",
        "district_number": 52,
        "name": "Faridpur",
        "bn_name": "ফরিদপুর",
        "lat": 23.6070822,
        "lon": 89.8429406,
        "url": "www.faridpur.gov.bd",
        "created": "2022-03-16T15:01:25.563Z",
        "__v": 0
    },
    {
        "_id": "6231fbd1f54eb9a85b334b52",
        "district_number": 53,
        "name": "Panchagarh",
        "bn_name": "পঞ্চগড়",
        "lat": 26.3411,
        "lon": 88.5541606,
        "url": "www.panchagarh.gov.bd",
        "created": "2022-03-16T15:01:37.716Z",
        "__v": 0
    },
    {
        "_id": "6231fbd7f54eb9a85b334b54",
        "district_number": 54,
        "name": "Dinajpur",
        "bn_name": "দিনাজপুর",
        "lat": 25.6217061,
        "lon": 88.6354504,
        "url": "www.dinajpur.gov.bd",
        "created": "2022-03-16T15:01:43.899Z",
        "__v": 0
    },
    {
        "_id": "6231fbebf54eb9a85b334b56",
        "district_number": 55,
        "name": "Lalmonirhat",
        "bn_name": "লালমনিরহাট",
        "lat": 0,
        "lon": 0,
        "url": "www.lalmonirhat.gov.bd",
        "created": "2022-03-16T15:02:03.014Z",
        "__v": 0
    },
    {
        "_id": "6231fbf3f54eb9a85b334b58",
        "district_number": 56,
        "name": "Nilphamari",
        "bn_name": "নীলফামারী",
        "lat": 25.931794,
        "lon": 88.856006,
        "url": "www.nilphamari.gov.bd",
        "created": "2022-03-16T15:02:11.936Z",
        "__v": 0
    },
    {
        "_id": "6231fbfbf54eb9a85b334b5a",
        "district_number": 57,
        "name": "Gaibandha",
        "bn_name": "গাইবান্ধা",
        "lat": 25.328751,
        "lon": 89.528088,
        "url": "www.gaibandha.gov.bd",
        "created": "2022-03-16T15:02:19.641Z",
        "__v": 0
    },
    {
        "_id": "6231fc03f54eb9a85b334b5c",
        "district_number": 58,
        "name": "Thakurgaon",
        "bn_name": "ঠাকুরগাঁও",
        "lat": 26.0336945,
        "lon": 88.4616834,
        "url": "www.thakurgaon.gov.bd",
        "created": "2022-03-16T15:02:27.590Z",
        "__v": 0
    },
    {
        "_id": "6231fc0cf54eb9a85b334b5e",
        "district_number": 59,
        "name": "Rangpur",
        "bn_name": "রংপুর",
        "lat": 25.7558096,
        "lon": 89.244462,
        "url": "www.rangpur.gov.bd",
        "created": "2022-03-16T15:02:36.231Z",
        "__v": 0
    },
    {
        "_id": "6231fc14f54eb9a85b334b60",
        "district_number": 60,
        "name": "Kurigram",
        "bn_name": "কুড়িগ্রাম",
        "lat": 25.805445,
        "lon": 89.636174,
        "url": "www.kurigram.gov.bd",
        "created": "2022-03-16T15:02:44.577Z",
        "__v": 0
    },
    {
        "_id": "6231fc1bf54eb9a85b334b62",
        "district_number": 61,
        "name": "Sherpur",
        "bn_name": "শেরপুর",
        "lat": 25.0204933,
        "lon": 90.0152966,
        "url": "www.sherpur.gov.bd",
        "created": "2022-03-16T15:02:51.831Z",
        "__v": 0
    },
    {
        "_id": "6231fc36f54eb9a85b334b64",
        "district_number": 63,
        "name": "Jamalpur",
        "bn_name": "জামালপুর",
        "lat": 24.937533,
        "lon": 89.937775,
        "url": "www.jamalpur.gov.bd",
        "created": "2022-03-16T15:03:18.154Z",
        "__v": 0
    },
    {
        "_id": "6231fc3ff54eb9a85b334b66",
        "district_number": 64,
        "name": "Netrokona",
        "bn_name": "নেত্রকোণা",
        "lat": 24.870955,
        "lon": 90.727887,
        "url": "www.netrokona.gov.bd",
        "created": "2022-03-16T15:03:27.439Z",
        "__v": 0
    }

]

